[
  {
    "name": "Xiajiang",
    "country": "China",
    "latitude": 27.58540579999265,
    "longitude": 115.3112808,
    "other_names": {
      "name": "峡江县",
      "name:en": "Xiajiang",
      "name:zh": "峡江县",
      "alt_name": "峡江;Xiajiang County",
      "name:zh-Hant": "峽江縣",
      "name:zh_pinyin": "xiájiāng xiàn"
    }
  },
  {
    "name": "Xiajin",
    "country": "China",
    "latitude": 36.947832299841835,
    "longitude": 115.9957995,
    "other_names": {
      "name": "夏津县",
      "name:en": "Xiajin",
      "name:vi": "Hạ Tân",
      "name:zh": "夏津县",
      "name:zh-Hant": "夏津縣",
      "name:zh_pinyin": "Xiajin Xian"
    }
  },
  {
    "name": "Xialu",
    "country": "China",
    "latitude": 30.17636569972428,
    "longitude": 114.95611110000002,
    "other_names": {
      "name": "下陆区",
      "name:en": "Xialu",
      "name:vi": "Hạ Lục",
      "name:zh": "下陆区",
      "name:zh-Hant": "下陸區",
      "name:zh_pinyin": "Xialu Qu"
    }
  },
  {
    "name": "Xiamen City",
    "country": "China",
    "latitude": 24.480106900299603,
    "longitude": 118.08534790000002,
    "other_names": {
      "name": "厦门市",
      "name:ar": "شيامن",
      "name:bg": "Сямън",
      "name:ca": "Xiamen",
      "name:cs": "Sia-men",
      "name:de": "Xiamen",
      "name:el": "Σιαμέν",
      "name:en": "Xiamen City",
      "name:es": "Xiamen",
      "name:et": "Xiamen",
      "name:eu": "Xiamen",
      "name:fi": "Xiamen",
      "name:fr": "Xiamen",
      "name:hi": "शियामेन",
      "name:id": "Xiamen",
      "name:ja": "廈門市",
      "name:ko": "샤먼시",
      "name:ms": "Xiamen",
      "name:pl": "Xiamen",
      "name:ru": "Сямынь",
      "name:tl": "Xiamen",
      "name:vi": "Hạ Môn",
      "name:zh": "厦门市",
      "name:cdo": "Â-muòng",
      "name:ceb": "Xiamen",
      "name:hak": "Ha-mùn-sṳ",
      "name:nan": "Ē-mn̂g-chhī",
      "name:wuu": "厦门市",
      "name:yue": "廈門",
      "old_name:en": "Amoy",
      "name:zh-Hans": "厦门市",
      "name:zh-Hant": "厦門市",
      "name:zh_pinyin": "Xiàmén Shì"
    }
  },
  {
    "name": "Xi'an",
    "country": "China",
    "latitude": 42.92410720053453,
    "longitude": 125.1431337,
    "other_names": {
      "name": "西安区",
      "name:en": "Xi'an",
      "name:vi": "Tây An",
      "name:zh": "西安区",
      "alt_name": "西安;Xi'an District",
      "name:zh-Hant": "西安區",
      "name:zh_pinyin": "Xi'an Qu"
    }
  },
  {
    "name": "Xi'an",
    "country": "China",
    "latitude": 34.343050699614835,
    "longitude": 108.9352154,
    "other_names": {
      "name": "西安市",
      "name:ca": "Xi'an",
      "name:cs": "Si-an",
      "name:de": "Xi'an",
      "name:en": "Xi'an",
      "name:eo": "Ŝjiano",
      "name:es": "Xi'an",
      "name:et": "Xi'an",
      "name:fi": "Xi’an",
      "name:fr": "Xi'an",
      "name:hi": "शीअन्",
      "name:ja": "西安市",
      "name:kn": "ಶೀಅನ್",
      "name:nl": "Xi'an",
      "name:oc": "Xi'an",
      "name:ru": "Сиань",
      "name:sr": "Си'ан",
      "name:vi": "Tây An",
      "name:zh": "西安市",
      "old_name": "長安市;长安市",
      "alt_name:cs": "Západní Mír",
      "old_name:cs": "Čchang-an",
      "old_name:en": "Chang'an",
      "old_name:vi": "Tràng An;Trường An",
      "name:zh-Hant": "西安市",
      "name:zh_pinyin": "Xī'ān shì"
    }
  },
  {
    "name": "Xian",
    "country": "China",
    "latitude": 38.19049310000897,
    "longitude": 116.11910209999999,
    "other_names": {
      "name": "献县",
      "name:en": "Xian",
      "name:vi": "Hiến",
      "name:zh": "献县",
      "alt_name": "献;Xian County",
      "name:zh-Hant": "獻縣",
      "name:zh_pinyin": "Xian Xian"
    }
  },
  {
    "name": "Xian'an District",
    "country": "China",
    "latitude": 29.855162999752892,
    "longitude": 114.2932605,
    "other_names": {
      "name": "咸安区",
      "name:de": "Xian’an",
      "name:en": "Xian'an District",
      "name:fr": "District de Xian'an",
      "name:it": "Distretto di Xian'an",
      "name:ja": "咸安区",
      "name:ko": "셴안구",
      "name:no": "Xian'an",
      "name:sv": "Xian'an",
      "name:vi": "Hàm An",
      "name:zh": "咸安区",
      "name:nan": "Hâm-an-khu",
      "name:yue": "咸安區",
      "name:zh-Hant": "咸安區",
      "name:zh_pinyin": "Xian'an Qu"
    }
  },
  {
    "name": "Xianfeng",
    "country": "China",
    "latitude": 29.667869199770443,
    "longitude": 109.1351706,
    "other_names": {
      "name": "咸丰县",
      "name:en": "Xianfeng",
      "name:zh": "咸丰县",
      "name:zh-Hant": "咸豐縣"
    }
  },
  {
    "name": "Xiang'an",
    "country": "China",
    "latitude": 24.621976500288795,
    "longitude": 118.24320230000001,
    "other_names": {
      "name": "翔安区",
      "name:de": "Xiang’an",
      "name:en": "Xiang'an",
      "name:es": "Xiang'an",
      "name:fa": "شیانگان",
      "name:fr": "Xiang'an",
      "name:it": "Xiang'an",
      "name:ja": "翔安区",
      "name:ko": "샹안구",
      "name:no": "Xiang'an",
      "name:sv": "Xiang'an",
      "name:ur": "شیانگآن ضلع",
      "name:vi": "Tường An",
      "name:zh": "翔安区",
      "alt_name": "翔安;Xiang'an District",
      "name:cdo": "Siòng-ăng",
      "name:ceb": "Xiang'an",
      "name:hak": "Siòng-ôn-khî",
      "name:mwl": "Xiangan",
      "name:nan": "Siông-an-khu",
      "name:yue": "翔安",
      "name:zh-Hant": "翔安區",
      "name:zh_pinyin": "Xiáng'ān Qū"
    }
  },
  {
    "name": "Xiangcheng",
    "country": "China",
    "latitude": 24.513697300297085,
    "longitude": 117.64911939999998,
    "other_names": {
      "name": "芗城区",
      "name:de": "Xiangcheng",
      "name:en": "Xiangcheng",
      "name:es": "Xiāngchéng",
      "name:fr": "Xiangcheng",
      "name:it": "Xiangcheng",
      "name:ja": "キョウ城区",
      "name:ko": "샹청구",
      "name:vi": "Hương Thành",
      "name:zh": "芗城区",
      "name:cdo": "Hiŏng-siàng",
      "name:hak": "Hiông-sàng-khî",
      "name:nan": "Hiong-siâⁿ-khu",
      "name:zh-Hant": "薌城區",
      "name:zh_pinyin": "xiāngchéng qū"
    }
  },
  {
    "name": "Xiangcheng",
    "country": "China",
    "latitude": 33.443069699589444,
    "longitude": 114.90313159999998,
    "other_names": {
      "name": "项城市",
      "name:de": "Xiangcheng",
      "name:en": "Xiangcheng",
      "name:fr": "Xiangcheng",
      "name:ja": "項城市",
      "name:vi": "Hạng Thành",
      "name:zh": "项城",
      "int_name": "Xiangcheng",
      "name:zh-Hant": "項城市",
      "name:zh_pinyin": "Xiàngchéng Shì"
    }
  },
  {
    "name": "Xiangcheng",
    "country": "China",
    "latitude": 32.01254529960813,
    "longitude": 112.1278125,
    "other_names": {
      "name": "襄城区",
      "name:en": "Xiangcheng",
      "name:vi": "Tương Thành",
      "name:zh": "襄城区",
      "alt_name": "襄城;Xiangcheng District",
      "name:zh-Hant": "襄城區",
      "name:zh_pinyin": "Xiangcheng Qu"
    }
  },
  {
    "name": "Xiangcheng",
    "country": "China",
    "latitude": 33.85274019959738,
    "longitude": 113.5006546,
    "other_names": {
      "name": "襄城县",
      "name:en": "Xiangcheng",
      "name:zh": "襄城县",
      "name:zh-Hant": "襄城縣"
    }
  },
  {
    "name": "Xiangcheng",
    "country": "China",
    "latitude": 28.933386199844435,
    "longitude": 99.80119699999999,
    "other_names": {
      "name": "乡城县",
      "name:en": "Xiangcheng",
      "name:zh": "乡城县",
      "name:zh-Hant": "鄉城縣",
      "name:zh_pinyin": "Xiāngchéng Xiàn"
    }
  },
  {
    "name": "Xiangcheng District",
    "country": "China",
    "latitude": 31.370915099638268,
    "longitude": 120.6383049,
    "other_names": {
      "name": "相城区",
      "name:de": "Xiangcheng",
      "name:en": "Xiangcheng District",
      "name:fr": "District de Xiangcheng",
      "name:it": "Distretto di Xiangcheng",
      "name:ja": "相城区",
      "name:ko": "샹청구",
      "name:no": "Xiangcheng",
      "name:ru": "Сянчэн",
      "name:sv": "Xiangcheng",
      "name:th": "อำเภอเซียงเฉิง",
      "name:ur": "شیانگچینگ ضلع، سوژو",
      "name:vi": "Tương Thành, Tô Châu",
      "name:zh": "相城区",
      "name:ceb": "Xiangcheng Qu",
      "name:nan": "Siong-siâⁿ-khu",
      "name:wuu": "相城区",
      "name:yue": "相城區",
      "name:zh-Hant": "相城區",
      "name:zh_pinyin": "Xiāngchéng Qū"
    }
  },
  {
    "name": "Xiangdong",
    "country": "China",
    "latitude": 27.642485099986256,
    "longitude": 113.72778899999999,
    "other_names": {
      "name": "湘东区",
      "name:en": "Xiangdong",
      "name:vi": "Tương Đông",
      "name:zh": "湘东区",
      "alt_name": "湘东;Xiangdong District",
      "name:zh-Hant": "湘東區",
      "name:zh_pinyin": "Xiangdong Qu"
    }
  },
  {
    "name": "Xiangfang",
    "country": "China",
    "latitude": 45.70617950038561,
    "longitude": 126.65691339999998,
    "other_names": {
      "name": "香坊区",
      "name:en": "Xiangfang",
      "name:zh": "香坊区",
      "name:zh-Hant": "香坊區"
    }
  },
  {
    "name": "Xiangfen",
    "country": "China",
    "latitude": 35.88187199972401,
    "longitude": 111.42175969999998,
    "other_names": {
      "name": "襄汾县",
      "name:en": "Xiangfen",
      "name:zh": "襄汾县",
      "alt_name": "襄汾;新城镇;新城;Shicun;Shih-ts'un-chen;Shih-ts'un;Hsiang-fen;Hsiang-fen-hsien;Xiangfen Xian",
      "name:zh-Hant": "襄汾縣"
    }
  },
  {
    "name": "Xiangfu",
    "country": "China",
    "latitude": 34.75814119963635,
    "longitude": 114.43487049999999,
    "other_names": {
      "name": "祥符区",
      "name:en": "Xiangfu",
      "name:zh": "祥符区",
      "alt_name": "祥符;Xiangfu District",
      "old_name": "开封县;开封",
      "name:zh-Hant": "祥符區"
    }
  }
]